[
  {
    "id": 1,
    "location": "서울",
    "name": "세종호텔",
    "type": "연중객실할인",
    "start": "2018-09-17",
    "end": "2021-12-31",
    "tel": "02-3705-9115",
    "site": "https://www.welfare.mil.kr",
    "detail": ""
  },
  {
    "id": 2,
    "location": "경남",
    "name": "거제삼성호텔",
    "type": "연중객실할인",
    "start": "2017-01-01",
    "end": "2021-12-31",
    "tel": "055-631-2114",
    "site": "https://www.welfare.mil.kr",
    "detail": ""
  },
  {
    "id": 3,
    "location": "경기",
    "name": "베어스타운리조트",
    "type": "연중객실할인",
    "start": "2016-11-25",
    "end": "2021-12-31",
    "tel": "02-456-2014",
    "site": "https://www.cielsportsmedia.co.kr",
    "detail": "씨엘스포츠폐쇄몰예약"
  },
  {
    "id": 4,
    "location": "강원",
    "name": "하이원리조트",
    "type": "연중객실할인",
    "start": "2017-06-19",
    "end": "2021-12-31",
    "tel": "1588-7789",
    "site": "https://www.welfare.mil.kr",
    "detail": ""
  },
  {
    "id": 5,
    "location": "강원",
    "name": "용평리조트객실할인",
    "type": "연중객실할인",
    "start": "2016-07-01",
    "end": "2021-12-31",
    "tel": "02-456-2014",
    "site": "https://www.welfare.mil.kr",
    "detail": "씨엘스포츠폐쇄몰예약"
  },
  {
    "id": 6,
    "location": "경남",
    "name": "코오롱호텔(경주)",
    "type": "연중객실할인",
    "start": "2016-07-26",
    "end": "2021-12-31",
    "tel": "1600-8668",
    "site": "https://www.welfare.mil.kr",
    "detail": ""
  },
  {
    "id": 7,
    "location": "경남",
    "name": "코오롱씨클라우드호텔(해운대)",
    "type": "연중객실할인",
    "start": "2016-07-26",
    "end": "2021-12-31",
    "tel": "051-933-1000",
    "site": "https://www.welfare.mil.kr",
    "detail": ""
  },
  {
    "id": 8,
    "location": "경남",
    "name": "코오롱마우나오션리조트(경주)",
    "type": "연중객실할인",
    "start": "2016-07-26",
    "end": "2021-12-31",
    "tel": "054-740-0500",
    "site": "https://www.welfare.mil.kr",
    "detail": ""
  },
  {
    "id": 9,
    "location": "경기",
    "name": "호텔더숨포레스트",
    "type": "연중객실할인",
    "start": "2016-10-01",
    "end": "2021-12-31",
    "tel": "1577-2777",
    "site": "https://www.welfare.mil.kr",
    "detail": ""
  },
  {
    "id": 10,
    "location": "경남",
    "name": "거제씨앤스카이리조트",
    "type": "연중객실할인",
    "start": "2017-02-16",
    "end": "2021-12-31",
    "tel": "055-682-0102",
    "site": "https://www.welfare.mil.kr",
    "detail": ""
  },
  {
    "id": 11,
    "location": "서울",
    "name": "코리아나호텔",
    "type": "연중객실할인",
    "start": "2018-05-01",
    "end": "2021-12-31",
    "tel": "02-2171-7842",
    "site": "https://www.welfare.mil.kr",
    "detail": ""
  },
  {
    "id": 12,
    "location": "서울",
    "name": "신라스테이서대문/마포호텔",
    "type": "연중객실할인",
    "start": "2018-05-03",
    "end": "2021-12-31",
    "tel": "02-2230-0700",
    "site": "https://www.welfare.mil.kr",
    "detail": ""
  },
  {
    "id": 13,
    "location": "강원",
    "name": "알펜시아리조트",
    "type": "연중객실할인",
    "start": "2018-07-18",
    "end": "2019-12-31",
    "tel": "02-456-2014",
    "site": "https://www.cielsportsmedia.co.kr",
    "detail": "씨엘스포츠폐쇄몰예약"
  },
  {
    "id": 14,
    "location": "제주",
    "name": "제주윈스카이호텔",
    "type": "연중객실할인",
    "start": "2018-07-18",
    "end": "2021-12-31",
    "tel": "02-456-2014",
    "site": "https://www.cielsportsmedia.co.kr",
    "detail": "씨엘스포츠폐쇄몰예약"
  },
  {
    "id": 15,
    "location": "인천",
    "name": "네스트호텔",
    "type": "연중객실할인",
    "start": "2018-06-19",
    "end": "2021-12-31",
    "tel": "032-743-9000",
    "site": "https://www.welfare.mil.kr",
    "detail": ""
  },
  {
    "id": 16,
    "location": "경남",
    "name": "라마다거제스위츠호텔",
    "type": "연중객실할인",
    "start": "2018-08-20",
    "end": "2019-12-31",
    "tel": "055-682-7000",
    "site": "https://www.welfare.mil.kr",
    "detail": ""
  },
  {
    "id": 17,
    "location": "제주",
    "name": "제주다인오세아노호텔앤리조트",
    "type": "연중객실할인",
    "start": "2018-10-01",
    "end": "2021-12-31",
    "tel": "1811-0012",
    "site": "https://www.welfare.mil.kr",
    "detail": ""
  },
  {
    "id": 18,
    "location": "서울",
    "name": "롯데씨티호텔마포/구로/대전점",
    "type": "연중객실할인",
    "start": "2018-10-01",
    "end": "2021-12-31",
    "tel": "02-771-1004",
    "site": "https://www.welfare.mil.kr",
    "detail": ""
  },
  {
    "id": 19,
    "location": "경기",
    "name": "라마다용인호텔",
    "type": "연중객실할인",
    "start": "2019-05-01",
    "end": "2021-12-31",
    "tel": "02-3486-3652",
    "site": "https://www.welfare.mil.kr",
    "detail": ""
  },
  {
    "id": 20,
    "location": "서울",
    "name": "롯데호텔(소공동)",
    "type": "연중객실할인",
    "start": "2019-05-01",
    "end": "2021-12-31",
    "tel": "02-759-7311",
    "site": "https://www.welfare.mil.kr",
    "detail": ""
  },
  {
    "id": 21,
    "location": "서울/강원",
    "name": "켄싱턴호텔여의도/평창/설악지점",
    "type": "연중객실할인",
    "start": "2019-05-13",
    "end": "2021-12-31",
    "tel": "1670-7461",
    "site": "https://www.welfare.mil.kr",
    "detail": ""
  },
  {
    "id": 22,
    "location": "경북",
    "name": "라마다문경새재호텔",
    "type": "연중객실할인",
    "start": "2019-06-01",
    "end": "2021-12-31",
    "tel": "054-504-7077",
    "site": "https://www.welfare.mil.kr",
    "detail": ""
  },
  {
    "id": 23,
    "location": "부산",
    "name": "신라스테이해운대",
    "type": "연중객실할인",
    "start": "2019-10-15",
    "end": "2021-12-31",
    "tel": "02-22300700",
    "site": "https://www.welfare.mil.kr",
    "detail": ""
  },
  {
    "id": 24,
    "location": "강원",
    "name": "라마다호텔(평창)",
    "type": "연중객실할인",
    "start": "2019-08-22",
    "end": "2021-12-31",
    "tel": "033-333-1000",
    "site": "https://www.welfare.mil.kr",
    "detail": ""
  },
  {
    "id": 25,
    "location": "강원",
    "name": "풍림아이원호텔&리조트(평창)",
    "type": "연중객실할인",
    "start": "2019-08-22",
    "end": "2021-12-31",
    "tel": "02-528-6001",
    "site": "https://www.welfare.mil.kr",
    "detail": ""
  },
  {
    "id": 26,
    "location": "제주",
    "name": "제주다인리조트&호텔",
    "type": "연중객실할인",
    "start": "2019-08-22",
    "end": "2021-12-31",
    "tel": "1811-0012",
    "site": "https://www.welfare.mil.kr",
    "detail": ""
  },
  {
    "id": 27,
    "location": "부산",
    "name": "아스티부산호텔",
    "type": "연중객실할인",
    "start": "2019-08-22",
    "end": "2021-12-31",
    "tel": "051-409-8888",
    "site": "https://www.welfare.mil.kr",
    "detail": ""
  },
  {
    "id": 28,
    "location": "대구",
    "name": "대구그랜드호텔",
    "type": "연중객실할인",
    "start": "2019-08-22",
    "end": "2021-12-31",
    "tel": "053-742-0001",
    "site": "https://www.welfare.mil.kr",
    "detail": ""
  },
  {
    "id": 29,
    "location": "제주",
    "name": "아스타호텔제주",
    "type": "연중객실할인",
    "start": "2019-08-22",
    "end": "2021-12-31",
    "tel": "064-710-1111",
    "site": "https://www.welfare.mil.kr",
    "detail": ""
  },
  {
    "id": 30,
    "location": "제주",
    "name": "그라벨제주호텔",
    "type": "연중객실할인",
    "start": "2019-08-22",
    "end": "2021-12-31",
    "tel": "064-740-8000",
    "site": "https://www.welfare.mil.kr",
    "detail": ""
  },
  {
    "id": 31,
    "location": "서울",
    "name": "임패리얼팰리스호텔",
    "type": "연중객실할인",
    "start": "2019-08-22",
    "end": "2021-12-31",
    "tel": "02-3440-8000",
    "site": "https://www.welfare.mil.kr",
    "detail": ""
  },
  {
    "id": 32,
    "location": "서울",
    "name": "글래드호텔여의도",
    "type": "연중객실할인",
    "start": "2019-08-22",
    "end": "2021-12-31",
    "tel": "02-6222-5000",
    "site": "https://www.welfare.mil.kr",
    "detail": ""
  },
  {
    "id": 33,
    "location": "부산",
    "name": "농심호텔(부산)",
    "type": "연중객실할인",
    "start": "2019-08-22",
    "end": "2021-12-31",
    "tel": "051-550-2100",
    "site": "https://www.welfare.mil.kr",
    "detail": ""
  },
  {
    "id": 34,
    "location": "경북",
    "name": "호텔금오산(경북)",
    "type": "연중객실할인",
    "start": "2019-08-22",
    "end": "2021-12-31",
    "tel": "054-450-4000",
    "site": "https://www.welfare.mil.kr",
    "detail": ""
  },
  {
    "id": 35,
    "location": "강원",
    "name": "인제스피디움(강원)",
    "type": "연중객실할인",
    "start": "2019-08-22",
    "end": "2021-12-31",
    "tel": "1644-3366",
    "site": "https://www.welfare.mil.kr",
    "detail": ""
  },
  {
    "id": 36,
    "location": "서울",
    "name": "포포츠버이쉐라톤강남호텔",
    "type": "연중객실할인",
    "start": "2019-08-22",
    "end": "2021-12-31",
    "tel": "02-2160-8990",
    "site": "https://www.welfare.mil.kr",
    "detail": ""
  },
  {
    "id": 37,
    "location": "서울",
    "name": "베스트웨스턴프리미어서울가든호텔",
    "type": "연중객실할인",
    "start": "2019-08-22",
    "end": "2021-12-31",
    "tel": "02-710-7111",
    "site": "https://www.welfare.mil.kr",
    "detail": ""
  },
  {
    "id": 38,
    "location": "서울",
    "name": "메이필드호텔(강서구)",
    "type": "연중객실할인",
    "start": "2019-08-22",
    "end": "2021-12-31",
    "tel": "02-2660-9000",
    "site": "https://www.welfare.mil.kr",
    "detail": ""
  },
  {
    "id": 39,
    "location": "제주",
    "name": "씨에스호텔앤리조트(제주)",
    "type": "연중객실할인",
    "start": "2019-08-22",
    "end": "2021-12-31",
    "tel": "064-735-3000",
    "site": "https://www.welfare.mil.kr",
    "detail": ""
  },
  {
    "id": 40,
    "location": "서울",
    "name": "골든서울호텔",
    "type": "연중객실할인",
    "start": "2019-08-22",
    "end": "2021-12-31",
    "tel": "02-3397-2000",
    "site": "https://www.welfare.mil.kr",
    "detail": ""
  },
  {
    "id": 41,
    "location": "울산",
    "name": "롯데호텔울산",
    "type": "연중객실할인",
    "start": "2019-08-22",
    "end": "2021-12-31",
    "tel": "052-960-1000",
    "site": "https://www.welfare.mil.kr",
    "detail": ""
  },
  {
    "id": 42,
    "location": "서울",
    "name": "더프라자호텔서울",
    "type": "연중객실할인",
    "start": "2019-08-22",
    "end": "2021-12-31",
    "tel": "02-310-7710",
    "site": "https://www.welfare.mil.kr",
    "detail": ""
  },
  {
    "id": 43,
    "location": "서울",
    "name": "더웨스틴조선호텔(서울)",
    "type": "연중객실할인",
    "start": "2020-08-15",
    "end": "2021-12-31",
    "tel": "02-317-0404",
    "site": "https://www.welfare.mil.kr",
    "detail": ""
  },
  {
    "id": 44,
    "location": "전남",
    "name": "디오션리조트호텔(여수)",
    "type": "연중객실할인",
    "start": "2020-09-01",
    "end": "2021-12-31",
    "tel": "1588-0009\"내선2번",
    "site": "https://www.welfare.mil.kr",
    "detail": ""
  },
  {
    "id": 45,
    "location": "전남",
    "name": "라마다플라자호텔(광주)",
    "type": "연중객실할인",
    "start": "2020-08-15",
    "end": "2021-12-31",
    "tel": "062-717-7000",
    "site": "https://www.welfare.mil.kr",
    "detail": ""
  },
  {
    "id": 46,
    "location": "충청",
    "name": "유성호텔(대전)",
    "type": "연중객실할인",
    "start": "2020-08-15",
    "end": "2021-12-31",
    "tel": "042-820-0617",
    "site": "https://www.welfare.mil.kr",
    "detail": ""
  },
  {
    "id": 47,
    "location": "충남",
    "name": "아산스파비스",
    "type": "연중이용권할인",
    "start": "2017-05-19",
    "end": "2021-12-31",
    "tel": "041-539-2000",
    "site": "https://www.welfare.mil.kr",
    "detail": ""
  },
  {
    "id": 48,
    "location": "경기",
    "name": "에버랜드자유이용(국.복지정책과)",
    "type": "연중이용할인",
    "start": "2016-09-28",
    "end": "2021-12-31",
    "tel": "02-748-6625",
    "site": "https://www.welfare.mil.kr",
    "detail": "휴가및외박중인본인에한하여무료제공(휴가기간중1회)"
  },
  {
    "id": 49,
    "location": "강원",
    "name": "용평리조트피크아일랜드",
    "type": "연중이용할인권",
    "start": "2016-11-25",
    "end": "2021-12-31",
    "tel": "070-7867-2014",
    "site": "https://www.cielsportsmedia.co.kr",
    "detail": "씨엘스포츠폐쇄몰예약"
  },
  {
    "id": 50,
    "location": "경기",
    "name": "과천서울랜드",
    "type": "이용할인(자유이용권)",
    "start": "2018-10-01",
    "end": "2021-12-31",
    "tel": "02-509-6214",
    "site": "https://www.welfare.mil.kr",
    "detail": "눈썰매장및자유이용권"
  },
  {
    "id": 51,
    "location": "충남",
    "name": "파라다이스도고스파",
    "type": "이용할인",
    "start": "2016-11-25",
    "end": "2021-12-31",
    "tel": "070-7867-2014",
    "site": "https://www.welfare.mil.kr",
    "detail": ""
  },
  {
    "id": 52,
    "location": "경기",
    "name": "어메이징파크",
    "type": "연중이용할인",
    "start": "2016-12-26",
    "end": "2021-12-31",
    "tel": "02-456-2014",
    "site": "https://www.cielsportsmedia.co.kr",
    "detail": "씨엘스포츠폐쇄몰예약"
  },
  {
    "id": 53,
    "location": "경기",
    "name": "베어스타운스키시즌권",
    "type": "스키시즌권",
    "start": "2018-09-07",
    "end": "2021-12-31",
    "tel": "02-456-2014",
    "site": "https://www.cielsportsmedia.co.kr",
    "detail": "씨엘스포츠폐쇄몰예약"
  },
  {
    "id": 54,
    "location": "경기",
    "name": "베어스타운리프트권",
    "type": "리프트권",
    "start": "2017-11-22",
    "end": "2021-12-31",
    "tel": "070-7867-2014",
    "site": "https://www.welfare.mil.kr",
    "detail": ""
  },
  {
    "id": 55,
    "location": "강원",
    "name": "용평리조트스키시즌권",
    "type": "스키시즌권",
    "start": "2016-09-05",
    "end": "2021-12-31",
    "tel": "070-7867-2014",
    "site": "https://www.welfare.mil.kr",
    "detail": ""
  },
  {
    "id": 56,
    "location": "강원",
    "name": "용평리조트리프트권",
    "type": "리프트권",
    "start": "2016-11-25",
    "end": "2021-12-31",
    "tel": "070-7867-2014",
    "site": "https://www.welfare.mil.kr",
    "detail": ""
  },
  {
    "id": 57,
    "location": "강원",
    "name": "웰리힐리스키시즌권",
    "type": "스키시즌권",
    "start": "2017-08-29",
    "end": "2021-12-31",
    "tel": "02-456-2014",
    "site": "https://www.cielsportsmedia.co.kr",
    "detail": "씨엘스포츠폐쇄몰예약"
  },
  {
    "id": 58,
    "location": "전북",
    "name": "무주리조트스키시즌권",
    "type": "스키시즌권",
    "start": "2017-09-12",
    "end": "2021-12-31",
    "tel": "02-456-2014",
    "site": "https://www.cielsportsmedia.co.kr",
    "detail": "씨엘스포츠폐쇄몰예약"
  },
  {
    "id": 59,
    "location": "강원",
    "name": "보광휘닉스파크스키시즌권",
    "type": "스키시즌권1차",
    "start": "2018-08-29",
    "end": "2021-12-31",
    "tel": "02-2031-1438",
    "site": "https://www.welfare.mil.kr",
    "detail": ""
  },
  {
    "id": 60,
    "location": "강원",
    "name": "용평리조트발왕산케이블카왕복권",
    "type": "이용할인",
    "start": "2018-10-25",
    "end": "2021-12-31",
    "tel": "02-456-2014",
    "site": "https://www.cielsportsmedia.co.kr",
    "detail": "씨엘스포츠폐쇄몰예약"
  },
  {
    "id": 61,
    "location": "경기",
    "name": "베어스타운리조트스키장비렌탈",
    "type": "스키장비대여할인",
    "start": "2018-12-06",
    "end": "2021-12-31",
    "tel": "02-456-2014",
    "site": "https://www.cielsportsmedia.co.kr",
    "detail": "씨엘스포츠폐쇄몰예약"
  },
  {
    "id": 62,
    "location": "제주",
    "name": "캐슬렉스제주CC(회원제)",
    "type": "골프",
    "start": "2019-11-12",
    "end": "2021-12-31",
    "tel": "064-793-6600",
    "site": "https://www.castlexjj.com",
    "detail": ""
  },
  {
    "id": 63,
    "location": "제주",
    "name": "세인트포골프&리조트",
    "type": "골프",
    "start": "2019-11-12",
    "end": "2021-12-31",
    "tel": "064-786-3800",
    "site": "https://www.stfour.com",
    "detail": ""
  },
  {
    "id": 64,
    "location": "제주",
    "name": "레이크힐스제주CC",
    "type": "골프",
    "start": "2020-04-01",
    "end": "2021-12-31",
    "tel": "064-738-8858",
    "site": "https://www.lakehills.co.kr",
    "detail": ""
  },
  {
    "id": 65,
    "location": "경남",
    "name": "거제씨월드",
    "type": "연중이용할인",
    "start": "2017-01-11",
    "end": "2021-12-31",
    "tel": "055-682-0330",
    "site": "https://www.welfare.mil.kr",
    "detail": ""
  },
  {
    "id": 66,
    "location": "서울",
    "name": "한화아쿠아플라넷",
    "type": "이용할인",
    "start": "2017-04-13",
    "end": "2021-12-31",
    "tel": "1661-1063",
    "site": "https://www.welfare.mil.kr",
    "detail": ""
  },
  {
    "id": 67,
    "location": "전국",
    "name": "롯데시네마(국.복지정책과)",
    "type": "연중이용할인",
    "start": "2018-01-01",
    "end": "2021-12-31",
    "tel": "02-748-6625",
    "site": "https://www.welfare.mil.kr",
    "detail": ""
  },
  {
    "id": 68,
    "location": "부산",
    "name": "씨라이프부산아쿠아리움",
    "type": "연중프로모션안내",
    "start": "2017-11-16",
    "end": "2021-12-31",
    "tel": "051-740-1700",
    "site": "https://www.welfare.mil.kr",
    "detail": ""
  },
  {
    "id": 69,
    "location": "서울",
    "name": "코엑스아쿠아리움",
    "type": "연중이용할인",
    "start": "2017-11-24",
    "end": "2021-12-31",
    "tel": "02-700-7305",
    "site": "https://www.welfare.mil.kr",
    "detail": ""
  },
  {
    "id": 70,
    "location": "서울",
    "name": "N서울타워제휴",
    "type": "연중이용할인",
    "start": "2018-02-28",
    "end": "2021-12-31",
    "tel": "02-3445-9221",
    "site": "https://www.welfare.mil.kr",
    "detail": ""
  },
  {
    "id": 71,
    "location": "경기",
    "name": "롯데월드언더씨킹덤",
    "type": "연중이용할인",
    "start": "2018-07-01",
    "end": "2021-12-31",
    "tel": "02-456-2014",
    "site": "https://www.cielsportsmedia.co.kr",
    "detail": "씨엘스포츠폐쇄몰예약"
  },
  {
    "id": 72,
    "location": "전국",
    "name": "CGV영화할인(국.복지정책과)",
    "type": "연중이용할인",
    "start": "2016-09-22",
    "end": "2021-12-31",
    "tel": "02-748-6625",
    "site": "https://www.welfare.mil.kr",
    "detail": ""
  },
  {
    "id": 73,
    "location": "전국",
    "name": "빕스할인(국.복지정책과)",
    "type": "연중이용할인",
    "start": "2016-09-22",
    "end": "2021-12-31",
    "tel": "02-748-6625",
    "site": "https://www.welfare.mil.kr",
    "detail": "군인동반테이블에한해1일1회,할인전주문금액10만원한도내"
  },
  {
    "id": 74,
    "location": "전국",
    "name": "메가박스할인(국.복지정책과)",
    "type": "연중이용할인",
    "start": "2018-10-08",
    "end": "2021-12-31",
    "tel": "02-748-6625",
    "site": "https://www.welfare.mil.kr",
    "detail": ""
  },
  {
    "id": 75,
    "location": "서울/부산",
    "name": "올반(센트럴시티점/영등포점/부산센텀시티점)",
    "type": "연중이용할인",
    "start": "2019-08-22",
    "end": "2021-12-31",
    "tel": "센트럴시티점:02-591-2213 영등포점:02-2639-4106부산센텀시티점:051-745-1960",
    "site": "https://www.welfare.mil.kr",
    "detail": "회원포함시일행전체할인혜택제공"
  },
  {
    "id": 76,
    "location": "서울/경기",
    "name": "보노보노(삼성/마포/죽전/김포한강점)",
    "type": "연중이용할인",
    "start": "2019-08-22",
    "end": "2021-12-31",
    "tel": "삼성점:02-3288-8080 마포점:02-3280-8080 죽전점:031-263-2213 김포한강점:031-987-8089",
    "site": "https://www.welfare.mil.kr",
    "detail": "회원포함시일행전체할인혜택제공"
  },
  {
    "id": 77,
    "location": "서울",
    "name": "마린칸토",
    "type": "연중이용할인",
    "start": "2020-04-01",
    "end": "2021-12-31",
    "tel": "02-712-5005",
    "site": "https://www.welfare.mil.kr",
    "detail": "회원포함시일행전체할인혜택제공 현재잠정휴업중"
  },
  {
    "id": 78,
    "location": "전국",
    "name": "JDX멀티스포츠",
    "type": "매장이용할인",
    "start": "2016-08-01",
    "end": "2021-07-31",
    "tel": "02-2225-6216",
    "site": "https://www.welfare.mil.kr",
    "detail": ""
  },
  {
    "id": 79,
    "location": "전국",
    "name": "에어부산(수송사)",
    "type": "이용할인",
    "start": "2016-07-04",
    "end": "2026-07-31",
    "tel": "02-3419-7553",
    "site": "https://www.welfare.mil.kr",
    "detail": ""
  },
  {
    "id": 80,
    "location": "전국",
    "name": "진에어(수송사)",
    "type": "이용할인",
    "start": "2017-09-18",
    "end": "2026-12-01",
    "tel": "02-3419-7553",
    "site": "https://www.welfare.mil.kr",
    "detail": ""
  },
  {
    "id": 81,
    "location": "전국",
    "name": "제주렌트카",
    "type": "이용할인",
    "start": "2017-10-01",
    "end": "2021-12-31",
    "tel": "1588-3301",
    "site": "https://www.welfare.mil.kr",
    "detail": ""
  },
  {
    "id": 82,
    "location": "전국",
    "name": "롯데렌터카",
    "type": "연중이용할인",
    "start": "2015-09-09",
    "end": "2021-12-31",
    "tel": "1588-1230",
    "site": "https://www.welfare.mil.kr",
    "detail": ""
  },
  {
    "id": 83,
    "location": "전국",
    "name": "이스타항공(수송사)",
    "type": "연중운임할인",
    "start": "2017-01-01",
    "end": "2016-12-01",
    "tel": "02-3419-7553",
    "site": "https://www.welfare.mil.kr",
    "detail": ""
  },
  {
    "id": 84,
    "location": "전국",
    "name": "티웨이항공(수송사)",
    "type": "연중운임할인",
    "start": "2016-12-02",
    "end": "2016-12-01",
    "tel": "02-3419-7553",
    "site": "https://www.welfare.mil.kr",
    "detail": ""
  },
  {
    "id": 85,
    "location": "전국",
    "name": "제주항공(수송사)",
    "type": "연중운임할인",
    "start": "2016-12-02",
    "end": "2016-06-30",
    "tel": "02-3419-7553",
    "site": "https://www.welfare.mil.kr",
    "detail": ""
  },
  {
    "id": 86,
    "location": "전국",
    "name": "통인익스프레스",
    "type": "이용할인",
    "start": "2018-02-01",
    "end": "2021-02-28",
    "tel": "1899-0123",
    "site": "https://www.welfare.mil.kr",
    "detail": ""
  },
  {
    "id": 87,
    "location": "전국",
    "name": "로젠이사",
    "type": "이용할인",
    "start": "2018-02-01",
    "end": "2021-02-28",
    "tel": "1544-0024",
    "site": "https://www.welfare.mil.kr",
    "detail": ""
  },
  {
    "id": 88,
    "location": "전국",
    "name": "CJ대한통운",
    "type": "이용할인",
    "start": "2018-02-01",
    "end": "2021-02-28",
    "tel": "1588-0860",
    "site": "https://www.welfare.mil.kr",
    "detail": ""
  },
  {
    "id": 89,
    "location": "전국",
    "name": "대신로지스틱스",
    "type": "이용할인",
    "start": "2018-02-01",
    "end": "2021-02-28",
    "tel": "02-3436-0123",
    "site": "https://www.welfare.mil.kr",
    "detail": ""
  },
  {
    "id": 90,
    "location": "전국",
    "name": "국민트랜스",
    "type": "이용할인",
    "start": "2018-02-01",
    "end": "2021-02-28",
    "tel": "02-482-0071",
    "site": "https://www.welfare.mil.kr",
    "detail": ""
  }
]